  - name: עבודה ישראל
    latitude: 32.072499
    longitude: 34.795492
    icon: mdi:worker
    radius: 50

  - name: משפחתון טל
    latitude: 32.068794
    longitude: 35.265473
    icon: mdi:book-open-variant
    radius: 50

  - name: נוה בית ספר
    latitude: 32.073764
    longitude: 35.265428
    icon: mdi:chair-school
    radius: 50

  - name: סמדר לימודים
    latitude: 32.138555
    longitude: 34.8313265
    icon: mdi:worker
    radius: 100

  - name: גן ארבל
    latitude: 32.071221
    longitude: 35.269677
    icon: mdi:book-open-variant
    radius: 50